{"type":"FeatureCollection","features":[{"type":"Feature","properties":{"name":"אבו קרינאת","casualties":4},"geometry":{"type":"Point","coordinates":[34.951911,31.102913]},"id":0},{"type":"Feature","properties":{"name":"אופקים","casualties":32},"geometry":{"type":"Point","coordinates":[34.619872,31.306574]}},{"type":"Feature","properties":{"name":"אשקלון","casualties":3},"geometry":{"type":"Point","coordinates":[34.574911,31.668413]},"id":2},{"type":"Feature","properties":{"name":"בארי","casualties":146},"geometry":{"type":"Point","coordinates":[34.492502,31.423711]}},{"type":"Feature","properties":{"name":"בין סעד לנחל עוז","casualties":3},"geometry":{"type":"Point","coordinates":[34.515703,31.472776]}},{"type":"Feature","properties":{"name":"חולית","casualties":16},"geometry":{"type":"Point","coordinates":[34.326655,31.229671]}},{"type":"Feature","properties":{"name":"חוף זיקים","casualties":18},"geometry":{"type":"Point","coordinates":[34.504554,31.612634]}},{"type":"Feature","properties":{"name":"יכיני","casualties":8},"geometry":{"type":"Point","coordinates":[34.598624,31.481737]}},{"type":"Feature","properties":{"name":"כוחלה","casualties":2},"geometry":{"type":"Point","coordinates":[35.054154,31.288408]},"id":8},{"type":"Feature","properties":{"name":"כיסופים","casualties":30},"geometry":{"type":"Point","coordinates":[34.399156,31.374448]}},{"type":"Feature","properties":{"name":"כפר אביב","casualties":1},"geometry":{"type":"Point","coordinates":[34.722831,31.829781]},"id":10},{"type":"Feature","properties":{"name":"כפר עזה","casualties":80},"geometry":{"type":"Point","coordinates":[34.532376,31.483276]}},{"type":"Feature","properties":{"name":"כרם שלום","casualties":4},"geometry":{"type":"Point","coordinates":[34.284429,31.227824]}},{"type":"Feature","properties":{"name":"מבטחים","casualties":6},"geometry":{"type":"Point","coordinates":[34.407501,31.242338]}},{"type":"Feature","properties":{"name":"מוצב כיסופים","casualties":15},"geometry":{"type":"Point","coordinates":[34.402202,31.374727]}},{"type":"Feature","properties":{"name":"מוצב נחל עוז","casualties":52},"geometry":{"type":"Point","coordinates":[34.501497,31.479863]}},{"type":"Feature","properties":{"name":"מוצב פגה","casualties":13},"geometry":{"type":"Point","coordinates":[34.470236,31.450581]}},{"type":"Feature","properties":{"name":"מחנה אורים","casualties":11},"geometry":{"type":"Point","coordinates":[34.54286,31.313478]}},{"type":"Feature","properties":{"name":"מחנה זיקים","casualties":8},"geometry":{"type":"Point","coordinates":[34.510125,31.603148]}},{"type":"Feature","properties":{"name":"מחנה רעים","casualties":7},"geometry":{"type":"Point","coordinates":[34.44704,31.362868]}},{"type":"Feature","properties":{"name":"מיגונית בכניסה לעלומים","casualties":7},"geometry":{"type":"Point","coordinates":[34.515003,31.451694]}},{"type":"Feature","properties":{"name":"מפלסים","casualties":70},"geometry":{"type":"Point","coordinates":[34.561727,31.501738]}},{"type":"Feature","properties":{"name":"מעבר ארז","casualties":14},"geometry":{"type":"Point","coordinates":[34.54431,31.558166]}},{"type":"Feature","properties":{"name":"ניר עם","casualties":2},"geometry":{"type":"Point","coordinates":[34.580779,31.518629]}},{"type":"Feature","properties":{"name":"תל גמה","casualties":14},"geometry":{"type":"Point","coordinates":[34.445559,31.387092]}},{"type":"Feature","properties":{"name":"נחל גרר ","casualties":3},"geometry":{"type":"Point","coordinates":[34.634824,31.385662]}},{"type":"Feature","properties":{"name":"נחל עוז","casualties":16},"geometry":{"type":"Point","coordinates":[34.497724,31.472556]}},{"type":"Feature","properties":{"name":"ניר יצחק","casualties":9},"geometry":{"type":"Point","coordinates":[34.356814,31.235902]}},{"type":"Feature","properties":{"name":"ניר עוז","casualties":59},"geometry":{"type":"Point","coordinates":[34.402115,31.309575]}},{"type":"Feature","properties":{"name":"נירים","casualties":8},"geometry":{"type":"Point","coordinates":[34.394119,31.335623]}},{"type":"Feature","properties":{"name":"נתיב העשרה","casualties":22},"geometry":{"type":"Point","coordinates":[34.539533,31.571985]}},{"type":"Feature","properties":{"name":"נתיבות; קריית משה","casualties":3},"geometry":{"type":"Point","coordinates":[34.587314,31.421094]}},{"type":"Feature","properties":{"name":"סופה","casualties":17},"geometry":{"type":"Point","coordinates":[34.342273,31.237328]}},{"type":"Feature","properties":{"name":"מוצב סופהצומת גמה","casualties":31},"geometry":{"type":"Point","coordinates":[34.447567,31.381046]}},{"type":"Feature","properties":{"name":"עין השלושה","casualties":4},"geometry":{"type":"Point","coordinates":[34.403271,31.351551]}},{"type":"Feature","properties":{"name":"עלומים","casualties":32},"geometry":{"type":"Point","coordinates":[34.514705,31.452787]}},{"type":"Feature","properties":{"name":"עמיעוז","casualties":1},"geometry":{"type":"Point","coordinates":[34.413649,31.247652]}},{"type":"Feature","properties":{"name":"ערערה בנגב","casualties":1},"geometry":{"type":"Point","coordinates":[35.012966,31.158784]},"id":37},{"type":"Feature","properties":{"name":"פסטיבל נובה","casualties":161},"geometry":{"type":"Point","coordinates":[34.470135,31.398337]}},{"type":"Feature","properties":{"name":"פרי גן","casualties":3},"geometry":{"type":"Point","coordinates":[34.356017,31.221644]}},{"type":"Feature","properties":{"name":"צומת מבטחים","casualties":13},"geometry":{"type":"Point","coordinates":[34.403087,31.25687]}},{"type":"Feature","properties":{"name":"צומת מעון","casualties":8},"geometry":{"type":"Point","coordinates":[34.439247,31.313554]}},{"type":"Feature","properties":{"name":"צומת שדרות דרום","casualties":2},"geometry":{"type":"Point","coordinates":[34.586595,31.516383]}},{"type":"Feature","properties":{"name":"צומת שער הנגב","casualties":32},"geometry":{"type":"Point","coordinates":[34.58691,31.507986]}},{"type":"Feature","properties":{"name":"רעים","casualties":91},"geometry":{"type":"Point","coordinates":[34.458855,31.38592]}},{"type":"Feature","properties":{"name":"שדרות","casualties":50},"geometry":{"type":"Point","coordinates":[34.595525,31.522367]}}]}