name,lon,lat
rafah,34.254161,31.268667
nuseirat,34.370346,31.457441
al-zawaida,34.359914,31.420459
al-mawasi,34.268757,31.359485
bureij,34.402363,31.438766
gaza city (march 2024),34.420815,31.50727
jabalia,34.482214,31.533865
deir al-balah,34.350983,31.417118
gaza city (september 2025),34.449493,31.511862